{
  "version": 2,
  "comment": "Mémoire interne pré-peuplée. Édition MCO via PR git sur ce fichier, bump de 'version' pour propager les nouvelles entrées. Les modifications utilisateur via /admin sont préservées grâce au flag userEdited (seedVersion est bumpé sans écraser les champs édités). v2 : ajout des coords lat/lng pour les TSOs majeurs.",
  "entries": [
    { "organizationName": "amprion",                     "displayName": "Amprion",                                          "country": "DE",   "typeHint": "TSO",            "lat": 51.5136,  "lng": 7.4653 },
    { "organizationName": "apg - austrian power grid",   "displayName": "APG - Austrian Power Grid",                        "country": "AT",   "typeHint": "TSO",            "lat": 48.2082,  "lng": 16.3738 },
    { "organizationName": "tscnet",                      "displayName": "TSCNET",                                           "country": "DE",   "typeHint": "RCC",            "lat": 48.1374,  "lng": 11.5755 },
    { "organizationName": "entsoe",                      "displayName": "ENTSO-E",                                          "country": "BE",   "typeHint": "ASSOCIATION",    "lat": 50.8503,  "lng": 4.3517 },
    { "organizationName": "coreso",                      "displayName": "CORESO",                                           "country": "BE",   "typeHint": "RCC",            "lat": 50.8503,  "lng": 4.3517 },
    { "organizationName": "eles d.o.o.",                 "displayName": "ELES d.o.o.",                                      "country": "SI",   "typeHint": "TSO",            "lat": 46.0569,  "lng": 14.5058 },
    { "organizationName": "swissgrid ag",                "displayName": "Swissgrid AG",                                     "country": "CH",   "typeHint": "TSO",            "lat": 47.5596,  "lng": 7.9086 },
    { "organizationName": "swissgrid",                   "displayName": "Swissgrid",                                        "country": "CH",   "typeHint": "TSO",            "lat": 47.5596,  "lng": 7.9086 },
    { "organizationName": "rte",                         "displayName": "RTE (Réseau de Transport d'Électricité)",          "country": "FR",   "typeHint": "TSO",            "lat": 48.8918,  "lng": 2.2378 },
    { "organizationName": "ems",                         "displayName": "EMS",                                              "country": "RS",   "typeHint": "TSO",            "lat": 44.7866,  "lng": 20.4489 },
    { "organizationName": "epex spot",                   "displayName": "EPEX Spot",                                        "country": "FR",   "typeHint": "NEMO",           "lat": 48.8566,  "lng": 2.3522 },
    { "organizationName": "european energy exchange ag", "displayName": "European Energy Exchange AG",                      "country": "DE",   "typeHint": "EXCHANGE",       "lat": 51.3397,  "lng": 12.3731 },
    { "organizationName": "red electrica",               "displayName": "Red Eléctrica de España S.A.",                     "country": "ES",   "typeHint": "TSO",            "lat": 40.4168,  "lng": -3.7038 },
    { "organizationName": "pse s.a.",                    "displayName": "PSE S.A. (Polskie Sieci Elektroenergetyczne)",     "country": "PL",   "typeHint": "TSO",            "lat": 52.0692,  "lng": 19.4803 },
    { "organizationName": "jao s.a.",                    "displayName": "JAO S.A. (Joint Allocation Office)",               "country": "LU",   "typeHint": "AO",             "lat": 49.6116,  "lng": 6.1319 },
    { "organizationName": "jao",                         "displayName": "JAO",                                              "country": "LU",   "typeHint": "AO",             "lat": 49.6116,  "lng": 6.1319 },
    { "organizationName": "elia",                        "displayName": "Elia",                                             "country": "BE",   "typeHint": "TSO",            "lat": 50.8503,  "lng": 4.3517 },
    { "organizationName": "seps",                        "displayName": "SEPS (Slovenská elektrizačná prenosová sústava)",  "country": "SK",   "typeHint": "TSO",            "lat": 48.1486,  "lng": 17.1077 },
    { "organizationName": "ren",                         "displayName": "REN (Rede Eléctrica Nacional)",                    "country": "PT",   "typeHint": "TSO",            "lat": 38.7223,  "lng": -9.1393 },
    { "organizationName": "ceps",                        "displayName": "ČEPS, a.s.",                                       "country": "CZ",   "typeHint": "TSO",            "lat": 50.0755,  "lng": 14.4378 },
    { "organizationName": "ipto",                        "displayName": "IPTO / ADMIE",                                     "country": "GR",   "typeHint": "TSO",            "lat": 37.9838,  "lng": 23.7275 },
    { "organizationName": "transelectrica",              "displayName": "CNTEE Transelectrica SA",                          "country": "RO",   "typeHint": "TSO",            "lat": 44.4268,  "lng": 26.1025 },
    { "organizationName": "hops",                        "displayName": "HOPS",                                             "country": "HR",   "typeHint": "TSO",            "lat": 45.8150,  "lng": 15.9819 },
    { "organizationName": "eso",                         "displayName": "ESO (Elektroenergien Sistemen Operator)",          "country": "BG",   "typeHint": "TSO",            "lat": 42.6977,  "lng": 23.3219 },
    { "organizationName": "mepso",                       "displayName": "AD MEPSO",                                         "country": "MK",   "typeHint": "TSO",            "lat": 41.9981,  "lng": 21.4254 },
    { "organizationName": "cges",                        "displayName": "CGES (Crnogorski Elektroprenosni Sistem)",         "country": "ME",   "typeHint": "TSO",            "lat": 42.4304,  "lng": 19.2594 },
    { "organizationName": "see cao",                     "displayName": "Coordinated Auction Office in SEE",                "country": "ME",   "typeHint": "CAO",            "lat": 42.4304,  "lng": 19.2594 },
    { "organizationName": "elering as",                  "displayName": "Elering AS",                                       "country": "EE",   "typeHint": "TSO",            "lat": 59.4370,  "lng": 24.7536 },
    { "organizationName": "teias",                       "displayName": "TEİAŞ",                                            "country": "TR",   "typeHint": "TSO",            "lat": 39.9334,  "lng": 32.8597 },
    { "organizationName": "litgrid",                     "displayName": "Litgrid AB",                                       "country": "LT",   "typeHint": "TSO",            "lat": 54.6872,  "lng": 25.2797 },
    { "organizationName": "ast",                         "displayName": "Augstsprieguma tīkls (AST)",                       "country": "LV",   "typeHint": "TSO",            "lat": 56.9496,  "lng": 24.1052 },
    { "organizationName": "fingrid oyj",                 "displayName": "Fingrid Oyj",                                      "country": "FI",   "typeHint": "TSO",            "lat": 60.1699,  "lng": 24.9384 },
    { "organizationName": "energinet",                   "displayName": "Energinet",                                        "country": "DK",   "typeHint": "TSO",            "lat": 55.6761,  "lng": 12.5683 },
    { "organizationName": "statnett sf",                 "displayName": "Statnett SF",                                      "country": "NO",   "typeHint": "TSO",            "lat": 59.9139,  "lng": 10.7522 },
    { "organizationName": "svenska kraftnat",            "displayName": "Svenska kraftnät AB",                              "country": "SE",   "typeHint": "TSO",            "lat": 59.3293,  "lng": 18.0686 },
    { "organizationName": "eirgrid plc",                 "displayName": "EirGrid PLC",                                      "country": "IE",   "typeHint": "TSO",            "lat": 53.3498,  "lng": -6.2603 },
    { "organizationName": "nordic rcc",                  "displayName": "Nordic RCC (NOIS / NESO)",                         "country": null,   "typeHint": "RCC",            "lat": null,     "lng": null },
    { "organizationName": "eleclink",                    "displayName": "ElecLink",                                         "country": "GB",   "typeHint": "INTERCONNECTOR", "lat": 51.5074,  "lng": -0.1278 },
    { "organizationName": "landsnet hf.",                "displayName": "Landsnet hf.",                                     "country": "IS",   "typeHint": "TSO",            "lat": 64.1466,  "lng": -21.9426 },
    { "organizationName": "tennet tso bv",               "displayName": "TenneT TSO B.V.",                                  "country": "NL",   "typeHint": "TSO",            "lat": 52.3702,  "lng": 4.8952 },
    { "organizationName": "tennet tso gmbh",             "displayName": "TenneT TSO GmbH",                                  "country": "DE",   "typeHint": "TSO",            "lat": 53.0793,  "lng": 8.8017 },
    { "organizationName": "ost sh.a",                    "displayName": "OST sh.a (Albanian Transmission)",                 "country": "AL",   "typeHint": "TSO",            "lat": 41.3275,  "lng": 19.8187 },
    { "organizationName": "xbid",                        "displayName": "XBID (Cross-border Intraday)",                     "country": null,   "typeHint": "PLATFORM",       "lat": null,     "lng": null },
    { "organizationName": "supercharge",                 "displayName": "Supercharge",                                      "country": null,   "typeHint": "PLATFORM",       "lat": null,     "lng": null },
    { "organizationName": "rnp",                         "displayName": "RNP / RNP2 (RTE regional partner)",                "country": "FR",   "typeHint": "PARTNER",        "lat": 48.8918,  "lng": 2.2378 }
  ]
}
